time(millisecond),datetime(utc),latitude,longitude,height_above_takeoff(feet),height_above_ground_at_drone_location(feet),ground_elevation_at_drone_location(feet),altitude_above_seaLevel(feet),height_sonar(feet),speed(mph),distance(feet),mileage(feet),satellites,gpslevel,voltage(v),max_altitude(feet),max_ascent(feet),max_speed(mph),max_distance(feet), xSpeed(mph), ySpeed(mph), zSpeed(mph), compass_heading(degrees), pitch(degrees), roll(degrees),isPhoto,isVideo,rc_elevator,rc_aileron,rc_throttle,rc_rudder,rc_elevator(percent),rc_aileron(percent),rc_throttle(percent),rc_rudder(percent),gimbal_heading(degrees),gimbal_pitch(degrees),gimbal_roll(degrees),battery_percent,voltageCell1,voltageCell2,voltageCell3,voltageCell4,voltageCell5,voltageCell6,current(A),battery_temperature(f),altitude(feet),ascent(feet),flycStateRaw,flycState,message
5510,3/16/2022 18:39,36.55903738,-89.07436786,29.855644,29.855644,367.7434612,397.5991052,0,0,0,0,16,0,14.266,397.5991052,29.855644,0,0,0,0,-0.671082,359.9,4.5,-2.5,0,0,1024,1024,1024,1024,0,0,0,0,254.4,-90,0,93,,,,,,,15.88,29.950016,397.5991052,29.855644,14,Waypoint,
5610,3/16/2022 18:39,36.55903732,-89.07436772,30.839896,30.839896,367.7434612,398.5833572,0,0,0.047036419,0.047036419,16,0,14.266,398.5833572,30.839896,0,0.047036419,0,0,-0.671082,359.9,2.9,-2.4,0,0,1024,1024,1024,1024,0,0,0,0,254.4,-90,0,93,,,,,,,15.88,29.950016,398.5833572,30.839896,14,Waypoint,Mission did take off
5710,3/16/2022 18:39,36.55903731,-89.07436755,31.824148,31.824148,367.7434612,399.5676092,0,0,0.095541014,0.096559058,16,0,14.266,399.5676092,31.824148,0,0.095541014,0,0,-0.671082,359.9,1.6,-2.6,0,0,1024,1024,1024,1024,0,0,0,0,254.4,-90,0,93,,,,,,,15.88,29.950016,399.5676092,31.824148,14,Waypoint,
5810,3/16/2022 18:39,36.5590373,-89.0743674,32.8084,32.8084,367.7434612,400.5518612,0,0,0.139808732,0.141237537,16,0,14.266,400.5518612,32.8084,0,0.139808732,0,0,-0.671082,359.9,1.2,-3.2,0,0,1024,1024,1024,1024,0,0,0,0,254.4,-90,0,93,,,,,,,15.88,29.950016,400.5518612,32.8084,14,Waypoint,
5910,3/16/2022 18:39,36.5590373,-89.07436728,33.792652,33.792652,367.7434612,401.5361132,0,0.223694,0.174552827,0.17664994,16,0,14.266,401.5361132,33.792652,0.223694,0.174552827,0,0,-0.671082,359.9,1.5,-3.6,0,0,1024,1024,1024,1024,0,0,0,0,254.4,-89.9,0,93,,,,,,,15.88,29.950016,401.5361132,33.792652,14,Waypoint,
6010,3/16/2022 18:39,36.55903731,-89.07436719,34.776904,34.776904,367.7434612,402.5203652,0,0.223694,0.198954075,0.202494101,16,0,14.266,402.5203652,34.776904,0.223694,0.198954075,0,0,-0.671082,359.9,2,-4.1,0,0,1024,1024,1024,1024,0,0,0,0,254.4,-90,0,93,,,,,,,15.88,29.950016,402.5203652,34.776904,14,Waypoint,
6110,3/16/2022 18:39,36.55903733,-89.07436712,35.761156,35.761156,367.7434612,403.5046172,0,0,0.22031628,0.225235243,16,0,14.48,403.5046172,35.761156,0.223694,0.22031628,0,0,-0.671082,359.9,2,-4.2,0,0,1024,1024,1024,1024,0,0,0,0,254.4,-90,0,93,,,,,,,16.478,30.9500114,403.5046172,35.761156,14,Waypoint,
6210,3/16/2022 18:39,36.55903734,-89.07436705,36.745408,36.745408,367.7434612,404.4888692,0,0,0.239807422,0.245848433,15,0,14.48,404.4888692,36.745408,0.223694,0.239807422,0,0,-0.671082,359.9,1.8,-4.2,0,0,1024,1024,1024,1024,0,0,0,0,254.4,-89.9,0,93,,,,,,,16.478,30.9500114,404.4888692,36.745408,14,Waypoint,
6310,3/16/2022 18:39,36.55903734,-89.07436698,37.72966,37.72966,367.7434612,405.4731212,0,0,0.258797909,0.264838919,15,0,14.48,405.4731212,37.72966,0.223694,0.258797909,0,0,-0.671082,359.9,2.2,-3.6,0,0,1024,1024,1024,1024,0,0,0,0,254.4,-89.9,0,93,,,,,,,16.478,30.9500114,405.4731212,37.72966,14,Waypoint,
6410,3/16/2022 18:39,36.55903732,-89.07436691,38.713912,38.713912,367.7434612,406.4573732,0,0,0.281440954,0.288069563,16,0,14.48,406.4573732,38.713912,0.223694,0.281440954,0,0,-0.671082,359.9,2.7,-3.1,0,0,1024,1024,1024,1024,0,0,0,0,254.4,-90,0,93,,,,,,,16.478,30.9500114,406.4573732,38.713912,14,Waypoint,
6510,3/16/2022 18:39,36.55903731,-89.07436681,40.026248,40.026248,367.7434612,407.7697092,0,0,0.309245417,0.315885509,16,0,14.48,407.7697092,40.026248,0.223694,0.309245417,0,0,-0.671082,359.9,2.5,-3.1,0,0,1024,1024,1024,1024,0,0,0,0,254.4,-90,0,93,,,,,,,16.478,30.9500114,407.7697092,40.026248,14,Waypoint,
6610,3/16/2022 18:39,36.55903731,-89.07436672,41.0105,41.0105,367.7434612,408.7539612,0,0,0.336174551,0.342814972,16,0,14.48,408.7539612,41.0105,0.223694,0.336174551,0,0,-0.671082,359.9,2,-3.2,0,0,1024,1024,1024,1024,0,0,0,0,254.4,-90,0,93,,,,,,,16.478,30.9500114,408.7539612,41.0105,14,Waypoint,
6710,3/16/2022 18:39,36.55903732,-89.07436665,41.994752,41.994752,367.7434612,409.7382132,0,0,0.35753282,0.364711298,16,0,14.48,409.7382132,41.994752,0.223694,0.35753282,0,0,-0.671082,359.9,1.7,-3.7,0,0,1024,1024,1024,1024,0,0,0,0,254.4,-90,0,93,,,,,,,16.478,30.9500114,409.7382132,41.994752,14,Waypoint,
6810,3/16/2022 18:39,36.55903734,-89.07436658,43.307088,43.307088,367.7434612,411.0505492,0,0.223694,0.376456705,0.385383871,16,0,14.48,411.0505492,43.307088,0.223694,0.376456705,0,0,-0.671082,359.9,1.7,-4.1,0,0,1024,1024,1024,1024,0,0,0,0,254.4,-89.9,0,93,,,,,,,16.478,30.9500114,411.0505492,43.307088,14,Waypoint,
6910,3/16/2022 18:39,36.55903737,-89.07436652,44.29134,44.29134,367.7434612,412.0348012,0,0.223694,0.39307416,0.405987546,16,0,14.48,412.0348012,44.29134,0.223694,0.39307416,0,0,-0.671082,359.9,2,-4.4,0,0,1024,1024,1024,1024,0,0,0,0,254.4,-89.9,0,93,,,,,,,16.478,30.9500114,412.0348012,44.29134,14,Waypoint,
7010,3/16/2022 18:39,36.55903741,-89.07436646,45.275592,45.2427836,367.7762696,413.0190532,0,0,0.412145682,0.430049226,16,0,14.48,413.0190532,45.275592,0.223694,0.412145682,0,0,-0.671082,359.9,2.4,-4.5,0,0,1024,1024,1024,1024,0,0,0,0,254.4,-89.9,0,93,,,,,,,16.478,30.9500114,413.0190532,45.275592,14,Waypoint,
7110,3/16/2022 18:39,36.55903748,-89.07436624,47.57218,47.5393716,367.7762696,415.3156412,0,0,0.477552509,0.498809071,16,0,14.453,415.3156412,47.57218,0.223694,0.477552509,0,0,-0.671082,359.9,2,-4.3,0,0,1024,1024,1024,1024,0,0,0,0,254.4,-89.9,0,93,,,,,,,16.096,30.9500114,415.3156412,47.57218,14,Waypoint,
7210,3/16/2022 18:39,36.5590375,-89.07436609,48.556432,48.5236236,367.7762696,416.2998932,0,0,0.521355004,0.542775608,16,0,14.453,416.2998932,48.556432,0.223694,0.521355004,0,0,-0.671082,359.9,1,-4.2,0,0,1024,1024,1024,1024,0,0,0,0,254.4,-89.9,0,93,,,,,,,16.096,30.9500114,416.2998932,48.556432,14,Waypoint,
7310,3/16/2022 18:39,36.55903754,-89.07436592,49.540684,49.5078756,367.7762696,417.2841452,0,0,0.573727052,0.5962533,16,0,14.453,417.2841452,49.540684,0.223694,0.573727052,0,0,-0.671082,359.9,0.7,-3.8,0,0,1024,1024,1024,1024,0,0,0,0,254.5,-90,0,93,,,,,,,16.096,30.9500114,417.2841452,49.540684,14,Waypoint,
7410,3/16/2022 18:39,36.55903759,-89.07436577,50.524936,50.4921276,367.7762696,418.2683972,0,0,0.618687684,0.64335632,16,0,14.453,418.2683972,50.524936,0.223694,0.618687684,0,0,-0.671082,359.9,0.9,-4,0,0,1024,1024,1024,1024,0,0,0,0,254.4,-90,0,93,,,,,,,16.096,30.9500114,418.2683972,50.524936,14,Waypoint,
7510,3/16/2022 18:39,36.55903763,-89.07436564,51.509188,51.4763796,367.7762696,419.2526492,0,0,0.657749365,0.68331367,16,0,14.453,419.2526492,51.509188,0.223694,0.657749365,0,0,-0.671082,359.9,0.7,-4,0,0,1024,1024,1024,1024,0,0,0,0,254.5,-90,0,93,,,,,,,16.096,30.9500114,419.2526492,51.509188,14,Waypoint,
7610,3/16/2022 18:39,36.55903766,-89.07436555,52.49344,52.4606316,367.7762696,420.2369012,0,0,0.684918001,0.710944905,16,0,14.453,420.2369012,52.49344,0.223694,0.684918001,0,0,-0.671082,359.9,0.9,-4.4,0,0,1024,1024,1024,1024,0,0,0,0,254.4,-90,0,93,,,,,,,16.096,30.9500114,420.2369012,52.49344,14,Waypoint,
7710,3/16/2022 18:39,36.55903766,-89.0743655,53.477692,53.4448836,367.7762696,421.2211532,0,0,0.700000022,0.726210653,16,0,14.453,421.2211532,53.477692,0.223694,0.700000022,0,0,-0.671082,359.9,1,-4.3,0,0,1024,1024,1024,1024,0,0,0,0,254.5,-89.9,0,93,,,,,,,16.096,30.9500114,421.2211532,53.477692,14,Waypoint,
7810,3/16/2022 18:39,36.55903764,-89.07436547,54.461944,54.4291356,367.7762696,422.2054052,0,0,0.709488212,0.737519709,16,0,14.453,422.2054052,54.461944,0.223694,0.709488212,0,0,-0.671082,359.9,1.1,-4.1,0,0,1024,1024,1024,1024,0,0,0,0,254.5,-90,0,93,,,,,,,16.096,30.9500114,422.2054052,54.461944,14,Waypoint,
7910,3/16/2022 18:39,36.55903763,-89.07436543,55.446196,55.4133876,367.7762696,423.1896572,0,0,0.720633225,0.750249368,16,0,14.453,423.1896572,55.446196,0.223694,0.720633225,0,0,-0.671082,359.9,1.2,-3.8,0,0,1024,1024,1024,1024,0,0,0,0,254.5,-90,0,93,,,,,,,16.096,30.9500114,423.1896572,55.446196,14,Waypoint,
8010,3/16/2022 18:39,36.55903763,-89.07436538,56.430448,56.3976396,367.7762696,424.1739092,0,0,0.733221808,0.763254618,16,0,14.453,424.1739092,56.430448,0.223694,0.733221808,0,0,-0.671082,359.9,1.1,-3.7,0,0,1024,1024,1024,1024,0,0,0,0,254.5,-90,0,93,,,,,,,16.096,30.9500114,424.1739092,56.430448,14,Waypoint,
8110,3/16/2022 18:39,36.55903762,-89.07436538,57.4147,57.3818916,367.7762696,425.1581612,0,0,0.734468527,0.765351074,16,0,14.506,425.1581612,57.4147,0.223694,0.734468527,0,0,-0.671082,359.9,1.2,-3.6,0,0,1024,1024,1024,1024,0,0,0,0,254.5,-90,0,93,,,,,,,15.288,30.9500114,425.1581612,57.4147,14,Waypoint,
8210,3/16/2022 18:39,36.55903762,-89.07436539,58.398952,58.3661436,367.7762696,426.1424132,0,0,0.731981651,0.767844513,16,0,14.506,426.1424132,58.398952,0.223694,0.734468527,0,0,-0.671082,359.9,1.2,-3.5,0,0,1024,1024,1024,1024,0,0,0,0,254.5,-90,0,93,,,,,,,15.288,30.9500114,426.1424132,58.398952,14,Waypoint,
8310,3/16/2022 18:39,36.55903761,-89.07436539,59.383204,59.3503956,367.7762696,427.1266652,0,0,0.730531519,0.772355668,16,0,14.506,427.1266652,59.383204,0.223694,0.734468527,0,0,-0.671082,359.9,1.2,-3.6,0,0,1024,1024,1024,1024,0,0,0,0,254.5,-90,0,93,,,,,,,15.288,30.9500114,427.1266652,59.383204,14,Waypoint,
8410,3/16/2022 18:39,36.5590376,-89.07436538,60.367456,60.3346476,367.7762696,428.1109172,0,0,0.732572202,0.775121416,16,0,14.506,428.1109172,60.367456,0.223694,0.734468527,0,0,-0.671082,359.9,0.7,-3.8,0,0,1024,1024,1024,1024,0,0,0,0,254.5,-90,0,93,,,,,,,15.288,30.9500114,428.1109172,60.367456,14,Waypoint,
8510,3/16/2022 18:39,36.55903763,-89.07436541,61.351708,61.3188996,367.7762696,429.0951692,0,0,0.726581388,0.785990839,16,0,14.506,429.0951692,61.351708,0.223694,0.734468527,0,0,-0.671082,359.9,0.3,-4,0,0,1024,1024,1024,1024,0,0,0,0,254.5,-90,0,93,,,,,,,15.288,30.9500114,429.0951692,61.351708,14,Waypoint,
8610,3/16/2022 18:39,36.55903765,-89.07436547,62.33596,62.3031516,367.7762696,430.0794212,0,0.223694,0.707598448,0.808359606,16,0,14.506,430.0794212,62.33596,0.223694,0.734468527,0,0,-0.671082,359.9,0.8,-3.5,0,0,1024,1024,1024,1024,0,0,0,0,254.5,-90,0,93,,,,,,,15.288,30.9500114,430.0794212,62.33596,14,Waypoint,
8710,3/16/2022 18:39,36.55903768,-89.07436559,63.648296,63.6154876,367.7762696,431.3917572,0,0.223694,0.675232961,0.84387798,16,0,14.506,431.3917572,63.648296,0.223694,0.734468527,0,0,-0.671082,359.9,1.4,-3.8,0,0,1024,1024,1024,1024,0,0,0,0,254.5,-89.9,0,93,,,,,,,15.288,30.9500114,431.3917572,63.648296,14,Waypoint,
8810,3/16/2022 18:39,36.55903772,-89.07436574,64.632548,64.5997396,367.7762696,432.3760092,0,0.223694,0.63472443,0.889826144,16,0,14.506,432.3760092,64.632548,0.223694,0.734468527,0,0,-0.671082,359.9,2.1,-4.4,0,0,1024,1024,1024,1024,0,0,0,0,254.5,-89.9,0,93,,,,,,,15.288,30.9500114,432.3760092,64.632548,14,Waypoint,
8910,3/16/2022 18:39,36.55903779,-89.07436595,65.6168,65.5839916,367.7762696,433.3602612,0,0.223694,0.58086616,0.956099112,16,0,14.506,433.3602612,65.6168,0.223694,0.734468527,0,0,-0.671082,359.9,2.5,-4.9,0,0,1024,1024,1024,1024,0,0,0,0,254.5,-89.9,0,93,,,,,,,15.288,30.9500114,433.3602612,65.6168,14,Waypoint,
9010,3/16/2022 18:39,36.55903786,-89.07436616,66.601052,66.5682436,367.7762696,434.3445132,0,0.223694,0.528959991,1.024504626,16,0,14.506,434.3445132,66.601052,0.223694,0.734468527,0,0,-0.671082,359.9,2.9,-5.1,0,0,1024,1024,1024,1024,0,0,0,0,254.5,-89.9,0,93,,,,,,,15.288,30.9500114,434.3445132,66.601052,14,Waypoint,
9110,3/16/2022 18:39,36.55903794,-89.07436637,67.585304,67.5524956,367.7762696,435.3287652,0,0.223694,0.484570225,1.090856334,16,0,14.506,435.3287652,67.585304,0.223694,0.734468527,0,0,-0.671082,359.9,2.9,-5.2,0,0,1024,1024,1024,1024,0,0,0,0,254.5,-89.9,0,93,,,,,,,15.288,30.9500114,435.3287652,67.585304,14,Waypoint,
9210,3/16/2022 18:39,36.55903801,-89.07436655,68.569556,68.5367476,367.7762696,436.3130172,0,0.223694,0.45017718,1.14966211,16,0,14.506,436.3130172,68.569556,0.223694,0.734468527,0,0,-0.671082,359.9,2.9,-5.3,0,0,1024,1024,1024,1024,0,0,0,0,254.5,-89.9,0,93,,,,,,,15.288,30.9500114,436.3130172,68.569556,14,Waypoint,
9310,3/16/2022 18:39,36.55903808,-89.07436673,69.553808,69.5209996,367.7762696,437.2972692,0,0.223694,0.419025604,1.209783503,16,0,14.506,437.2972692,69.553808,0.223694,0.734468527,0,0,-0.671082,359.9,2.7,-5.6,0,0,1024,1024,1024,1024,0,0,0,0,254.5,-90,0,93,,,,,,,15.288,30.9500114,437.2972692,69.553808,14,Waypoint,
9410,3/16/2022 18:39,36.55903814,-89.07436692,70.53806,70.5052516,367.7762696,438.2815212,0,0.223694,0.392887152,1.267221169,16,0,14.506,438.2815212,70.53806,0.223694,0.734468527,0,0,-0.671082,359.9,3.2,-6.4,0,0,1024,1024,1024,1024,0,0,0,0,254.5,-89.9,0,93,,,,,,,15.288,30.9500114,438.2815212,70.53806,14,Waypoint,
9510,3/16/2022 18:39,36.55903819,-89.0743671,71.522312,71.4895036,367.7762696,439.2657732,0,0.223694,0.372818253,1.323185738,16,0,14.506,439.2657732,71.522312,0.223694,0.734468527,0,0,-0.671082,359.9,2.5,-5.8,0,0,1024,1024,1024,1024,0,0,0,0,254.5,-89.9,0,93,,,,,,,15.288,30.9500114,439.2657732,71.522312,14,Waypoint,
9610,3/16/2022 18:39,36.55903822,-89.07436726,72.17848,72.1456716,367.7762696,439.9219412,0,0.223694,0.354773633,1.371853718,16,0,14.506,439.9219412,72.17848,0.223694,0.734468527,0,0,-0.671082,359.9,2.9,-5,0,0,1024,1024,1024,1024,0,0,0,0,254.5,-89.9,0,93,,,,,,,15.288,30.9500114,439.9219412,72.17848,14,Waypoint,
9710,3/16/2022 18:39,36.55903824,-89.07436744,73.162732,73.1299236,367.7762696,440.9061932,0,0.223694,0.340055785,1.427014481,16,0,14.506,440.9061932,73.162732,0.223694,0.734468527,0,0,-0.671082,359.9,3.1,-4.8,0,0,1024,1024,1024,1024,0,0,0,0,254.5,-89.9,0,93,,,,,,,15.288,30.9500114,440.9061932,73.162732,14,Waypoint,
9810,3/16/2022 18:39,36.55903824,-89.07436744,73.162732,73.1299236,367.7762696,440.9061932,0,0.223694,0.340055785,1.427014481,16,0,14.506,440.9061932,73.162732,0.223694,0.734468527,0,0,-0.671082,359.9,3.1,-4.8,0,0,1024,1024,1024,1024,0,0,0,0,254.5,-89.9,0,93,,,,,,,15.288,30.9500114,440.9061932,73.162732,14,Waypoint,
9910,3/16/2022 18:39,36.55903827,-89.07436761,74.146984,74.146984,367.7434612,441.8904452,0,0.223694,0.332723108,1.477664089,16,0,14.506,441.8904452,74.146984,0.223694,0.734468527,0,0,-0.671082,359.9,3.1,-5.3,0,0,1024,1024,1024,1024,0,0,0,0,254.5,-90,0,93,,,,,,,15.288,30.9500114,441.8904452,74.146984,14,Waypoint,
10010,3/16/2022 18:39,36.55903827,-89.07436781,75.131236,75.131236,367.7434612,442.8746972,0,0.223694,0.327937018,1.535843225,16,0,14.506,442.8746972,75.131236,0.223694,0.734468527,0,0,-0.671082,359.9,3,-5.6,0,0,1024,1024,1024,1024,0,0,0,0,254.5,-89.9,0,93,,,,,,,15.288,30.9500114,442.8746972,75.131236,14,Waypoint,
10110,3/16/2022 18:39,36.55903826,-89.07436798,76.115488,76.115488,367.7434612,443.8589492,0,0.223694,0.322948829,1.585593883,16,0,14.453,443.8589492,76.115488,0.223694,0.734468527,0,0,-0.671082,359.9,3.1,-5.3,0,0,1024,1024,1024,1024,0,0,0,0,254.5,-89.9,0,93,,,,,,,14.794,30.9500114,443.8589492,76.115488,14,Waypoint,
10210,3/16/2022 18:39,36.55903821,-89.07436816,77.09974,77.09974,367.7434612,444.8432012,0,0.223694,0.318334328,1.640843228,16,0,14.453,444.8432012,77.09974,0.223694,0.734468527,0,0,-0.671082,359.9,3.3,-5.1,0,0,1024,1024,1024,1024,0,0,0,0,254.5,-89.9,0,93,,,,,,,14.794,30.9500114,444.8432012,77.09974,14,Waypoint,
10310,3/16/2022 18:39,36.55903816,-89.07436832,78.083992,78.083992,367.7434612,445.8274532,0,0,0.315309065,1.690462653,16,0,14.453,445.8274532,78.083992,0.223694,0.734468527,0,0,-0.671082,359.9,3.5,-5,0,0,1024,1024,1024,1024,0,0,0,0,254.5,-90,0,93,,,,,,,14.794,30.9500114,445.8274532,78.083992,14,Waypoint,
10410,3/16/2022 18:39,36.55903811,-89.07436848,79.068244,79.068244,367.7434612,446.8117052,0,0,0.321854013,1.742723153,16,0,14.453,446.8117052,79.068244,0.223694,0.734468527,0,0,-0.671082,359.9,3.4,-4.6,0,0,1024,1024,1024,1024,0,0,0,0,254.5,-90,0,93,,,,,,,14.794,30.9500114,446.8117052,79.068244,14,Waypoint,
10510,3/16/2022 18:39,36.55903805,-89.07436861,80.052496,80.052496,367.7434612,447.7959572,0,0,0.329589906,1.785843233,16,0,14.453,447.7959572,80.052496,0.223694,0.734468527,0,0,-0.671082,359.9,3.4,-4.3,0,0,1024,1024,1024,1024,0,0,0,0,254.5,-89.9,0,93,,,,,,,14.794,30.9500114,447.7959572,80.052496,14,Waypoint,
10610,3/16/2022 18:39,36.559038,-89.07436875,81.036748,81.036748,367.7434612,448.7802092,0,0,0.345091875,1.830928536,16,0,14.453,448.7802092,81.036748,0.223694,0.734468527,0,0,-0.671082,359.9,3.4,-4.4,0,0,1024,1024,1024,1024,0,0,0,0,254.5,-90,0,93,,,,,,,14.794,30.9500114,448.7802092,81.036748,14,Waypoint,
10710,3/16/2022 18:39,36.55903794,-89.07436885,82.021,82.021,367.7434612,449.7644612,0,0,0.353687675,1.866148354,16,0,14.453,449.7644612,82.021,0.223694,0.734468527,0,0,-0.671082,359.9,3.5,-3.8,0,0,1024,1024,1024,1024,0,0,0,0,254.5,-89.9,0,93,,,,,,,14.794,30.9500114,449.7644612,82.021,14,Waypoint,
10810,3/16/2022 18:39,36.5590379,-89.07436895,83.005252,83.005252,367.7434612,450.7487132,0,0,0.372716547,1.900482344,16,0,14.453,450.7487132,83.005252,0.223694,0.734468527,0,0,-0.671082,359.9,3.4,-3.8,0,0,1024,1024,1024,1024,0,0,0,0,254.5,-90,0,93,,,,,,,14.794,30.9500114,450.7487132,83.005252,14,Waypoint,
10910,3/16/2022 18:39,36.55903789,-89.07436903,83.989504,83.989504,367.7434612,451.7329652,0,0,0.389645682,1.922677227,16,0,14.453,451.7329652,83.989504,0.223694,0.734468527,0,0,-0.671082,359.9,2.9,-4.6,0,0,1024,1024,1024,1024,0,0,0,0,254.5,-90,0,93,,,,,,,14.794,30.9500114,451.7329652,83.989504,14,Waypoint,
11010,3/16/2022 18:39,36.55903789,-89.07436911,84.973756,84.973756,367.7434612,452.7172172,0,0,0.411167992,1.947559117,16,0,14.453,452.7172172,84.973756,0.223694,0.734468527,0,0,-0.671082,359.9,2.6,-5,0,0,1024,1024,1024,1024,0,0,0,0,254.5,-90,0,93,,,,,,,14.794,30.9500114,452.7172172,84.973756,14,Waypoint,
11110,3/16/2022 18:39,36.55903787,-89.07436918,85.958008,85.958008,367.7434612,453.7014692,0,0,0.424835972,1.966594551,16,0,14.506,453.7014692,85.958008,0.223694,0.734468527,0,0,-0.671082,359.9,3,-5,0,0,1024,1024,1024,1024,0,0,0,0,254.5,-90,0,93,,,,,,,14.138,30.9500114,453.7014692,85.958008,14,Waypoint,
11210,3/16/2022 18:39,36.55903785,-89.07436924,86.94226,86.94226,367.7434612,454.6857212,0,0,0.438054476,1.985216599,16,0,14.506,454.6857212,86.94226,0.223694,0.734468527,0,0,-0.671082,359.9,2.9,-5.1,0,0,1024,1024,1024,1024,0,0,0,0,254.5,-90,0,93,,,,,,,14.138,30.9500114,454.6857212,86.94226,14,Waypoint,
11310,3/16/2022 18:39,36.55903782,-89.07436925,87.926512,87.926512,367.7434612,455.6699732,0,0,0.436466549,1.998287466,16,0,14.506,455.6699732,87.926512,0.223694,0.734468527,0,0,-0.671082,359.9,2.5,-4.5,0,0,1024,1024,1024,1024,0,0,0,0,254.5,-89.9,0,93,,,,,,,14.138,30.9500114,455.6699732,87.926512,14,Waypoint,
11410,3/16/2022 18:39,36.55903779,-89.07436927,88.910764,88.910764,367.7434612,456.6542252,0,0,0.437647652,2.012201508,16,0,14.506,456.6542252,88.910764,0.223694,0.734468527,0,0,-0.671082,359.9,3,-3.9,0,0,1024,1024,1024,1024,0,0,0,0,254.5,-90,0,93,,,,,,,14.138,30.9500114,456.6542252,88.910764,14,Waypoint,
11510,3/16/2022 18:39,36.55903776,-89.07436926,89.895016,89.895016,367.7434612,457.6384772,0,0,0.432349095,2.022378674,16,0,14.506,457.6384772,89.895016,0.223694,0.734468527,0,0,-0.671082,359.9,2.8,-4.1,0,0,1024,1024,1024,1024,0,0,0,0,254.5,-90,0,93,,,,,,,14.138,30.9500114,457.6384772,89.895016,14,Waypoint,
11610,3/16/2022 18:39,36.55903774,-89.07436927,91.207352,91.207352,367.7434612,458.9508132,0,0,0.433143058,2.031059776,16,0,14.506,458.9508132,91.207352,0.223694,0.734468527,0,0,-0.671082,359.9,2.4,-4.3,0,0,1024,1024,1024,1024,0,0,0,0,254.5,-90,0,93,,,,,,,14.138,30.9500114,458.9508132,91.207352,14,Waypoint,
11710,3/16/2022 18:39,36.55903771,-89.07436927,92.191604,92.191604,367.7434612,459.9350652,0,0,0.429229016,2.041102428,16,0,14.506,459.9350652,92.191604,0.223694,0.734468527,0,0,-0.671082,359.9,2.5,-4.2,0,0,1024,1024,1024,1024,0,0,0,0,254.5,-90,0,93,,,,,,,14.138,30.9500114,459.9350652,92.191604,14,Waypoint,
11810,3/16/2022 18:39,36.55903766,-89.07436928,93.175856,93.175856,367.7434612,460.9193172,0,0,0.428093846,2.058320276,16,0,14.506,460.9193172,93.175856,0.223694,0.734468527,0,0,-0.671082,359.9,2.5,-4.3,0,0,1024,1024,1024,1024,0,0,0,0,254.5,-90,0,93,,,,,,,14.138,30.9500114,460.9193172,93.175856,14,Waypoint,
11910,3/16/2022 18:39,36.55903763,-89.07436925,94.160108,94.160108,367.7434612,461.9035692,0,0,0.416876654,2.073782875,16,0,14.506,461.9035692,94.160108,0.223694,0.734468527,0,0,-0.671082,359.9,2.4,-4.1,0,0,1024,1024,1024,1024,0,0,0,0,254.5,-90,0,93,,,,,,,14.138,30.9500114,461.9035692,94.160108,14,Waypoint,
12010,3/16/2022 18:39,36.55903761,-89.07436921,95.14436,95.14436,367.7434612,462.8878212,0,0,0.403024947,2.088195605,16,0,14.506,462.8878212,95.14436,0.223694,0.734468527,0,0,-0.671082,359.9,2.2,-4.5,0,0,1024,1024,1024,1024,0,0,0,0,254.5,-90,0,93,,,,,,,14.138,30.9500114,462.8878212,95.14436,14,Waypoint,
12110,3/16/2022 18:39,36.55903761,-89.07436915,96.128612,96.128612,367.7434612,463.8720732,0,0,0.385124684,2.106788125,16,0,14.506,463.8720732,96.128612,0.223694,0.734468527,0,0,-0.671082,359.9,1.9,-4.8,0,0,1024,1024,1024,1024,0,0,0,0,254.5,-90,0,93,,,,,,,14.196,30.9500114,463.8720732,96.128612,14,Waypoint,
12210,3/16/2022 18:39,36.55903762,-89.07436909,97.112864,97.112864,367.7434612,464.8563252,0,0,0.370334658,2.122903611,16,0,14.506,464.8563252,97.112864,0.223694,0.734468527,0,0,-0.671082,359.9,1.9,-4.8,0,0,1024,1024,1024,1024,0,0,0,0,254.5,-90,0,93,,,,,,,14.196,30.9500114,464.8563252,97.112864,14,Waypoint,
12310,3/16/2022 18:39,36.55903765,-89.07436903,98.097116,98.097116,367.7434612,465.8405772,0,0,0.354337282,2.145177234,16,0,14.506,465.8405772,98.097116,0.223694,0.734468527,0,0,-0.671082,359.9,1.8,-5,0,0,1024,1024,1024,1024,0,0,0,0,254.5,-90,0,93,,,,,,,14.196,30.9500114,465.8405772,98.097116,14,Waypoint,
12410,3/16/2022 18:39,36.55903765,-89.07436895,99.081368,99.081368,367.7434612,466.8248292,0,0,0.333307097,2.167185109,16,0,14.506,466.8248292,99.081368,0.223694,0.734468527,0,0,-0.671082,359.9,1.7,-5.6,0,0,1024,1024,1024,1024,0,0,0,0,254.5,-90,0,93,,,,,,,14.196,30.9500114,466.8248292,99.081368,14,Waypoint,
12510,3/16/2022 18:39,36.55903764,-89.07436886,100.06562,100.06562,367.7434612,467.8090812,0,0,0.308444564,2.192395083,16,0,14.506,467.8090812,100.06562,0.223694,0.734468527,0,0,-0.671082,359.9,1.8,-5.8,0,0,1024,1024,1024,1024,0,0,0,0,254.5,-90,0,93,,,,,,,14.196,30.9500114,467.8090812,100.06562,14,Waypoint,
12610,3/16/2022 18:39,36.55903762,-89.07436876,101.049872,101.049872,367.7434612,468.7933332,0,0.223694,0.277582686,2.223421987,16,0,14.506,468.7933332,101.049872,0.223694,0.734468527,0,0,-0.671082,359.9,1.9,-5.3,0,0,1024,1024,1024,1024,0,0,0,0,254.5,-90,0,93,,,,,,,14.196,30.9500114,468.7933332,101.049872,14,Waypoint,
12710,3/16/2022 18:39,36.55903761,-89.07436864,102.034124,102.034124,367.7434612,469.7775852,0,0.223694,0.244108604,2.257890492,16,0,14.506,469.7775852,102.034124,0.223694,0.734468527,0,0,-0.671082,359.9,1.4,-4.9,0,0,1024,1024,1024,1024,0,0,0,0,254.5,-90,0,93,,,,,,,14.196,30.9500114,469.7775852,102.034124,14,Waypoint,
12810,3/16/2022 18:39,36.55903759,-89.07436853,103.018376,103.018376,367.7434612,470.7618372,0,0.223694,0.209266411,2.2933859,16,0,14.506,470.7618372,103.018376,0.223694,0.734468527,0,0,-0.671082,359.9,1.3,-4.9,0,0,1024,1024,1024,1024,0,0,0,0,254.5,-90,0,93,,,,,,,14.196,30.9500114,470.7618372,103.018376,14,Waypoint,
12910,3/16/2022 18:39,36.55903757,-89.07436841,104.002628,104.002628,367.7434612,471.7460892,0,0,0.175760832,2.327431177,16,0,14.506,471.7460892,104.002628,0.223694,0.734468527,0,0,-0.671082,359.9,1.3,-4.7,0,0,1024,1024,1024,1024,0,0,0,0,254.5,-90,0,93,,,,,,,14.196,30.9500114,471.7460892,104.002628,14,Waypoint,
13010,3/16/2022 18:39,36.55903752,-89.07436831,104.98688,104.98688,367.7434612,472.7303412,0,0,0.140097445,2.363303881,16,0,14.506,472.7303412,104.98688,0.223694,0.734468527,0,0,-0.671082,359.9,1.3,-4.5,0,0,1024,1024,1024,1024,0,0,0,0,254.5,-90,0,93,,,,,,,14.196,30.9500114,472.7303412,104.98688,14,Waypoint,
13110,3/16/2022 18:39,36.55903748,-89.07436821,105.971132,105.971132,367.7434612,473.7145932,0,0,0.107355318,2.396217268,16,0,14.533,473.7145932,105.971132,0.223694,0.734468527,0,0,-0.671082,359.9,1.2,-4.5,0,0,1024,1024,1024,1024,0,0,0,0,254.5,-90,0,92,,,,,,,14.196,30.9500114,473.7145932,105.971132,14,Waypoint,
13210,3/16/2022 18:39,36.55903745,-89.07436812,106.955384,106.955384,367.7434612,474.6988452,0,0,0.078304136,2.425338004,16,0,14.533,474.6988452,106.955384,0.223694,0.734468527,0,0,-0.671082,359.9,1.4,-4.7,0,0,1024,1024,1024,1024,0,0,0,0,254.5,-90,0,92,,,,,,,14.196,30.9500114,474.6988452,106.955384,14,Waypoint,
13310,3/16/2022 18:39,36.55903743,-89.07436802,107.939636,107.939636,367.7434612,475.6830972,0,0.223694,0.049052495,2.454822913,16,0,14.533,475.6830972,107.939636,0.223694,0.734468527,0,0,-0.671082,359.9,1.2,-5,0,0,1024,1024,1024,1024,0,0,0,0,254.5,-90,0,92,,,,,,,14.196,30.9500114,475.6830972,107.939636,14,Waypoint,
13410,3/16/2022 18:39,36.5590374,-89.0743679,108.923888,108.923888,367.7434612,476.6673492,0,0.223694,0.015832612,2.48925861,16,0,14.533,476.6673492,108.923888,0.223694,0.734468527,0,0,-0.671082,359.9,1.2,-4.8,0,0,1024,1024,1024,1024,0,0,0,0,254.5,-90,0,92,,,,,,,14.196,30.9500114,476.6673492,108.923888,14,Waypoint,
13510,3/16/2022 18:39,36.55903737,-89.07436778,109.580056,109.580056,367.7434612,477.3235172,0,0.223694,0.024269194,2.527070291,16,0,14.533,477.3235172,109.580056,0.223694,0.734468527,0,0,-0.671082,359.9,1.2,-4.3,0,0,1024,1024,1024,1024,0,0,0,0,254.5,-90,0,92,,,,,,,14.196,30.9500114,477.3235172,109.580056,14,Waypoint,
13610,3/16/2022 18:39,36.55903735,-89.07436766,110.564308,110.564308,367.7434612,478.3077692,0,0.223694,0.061333335,2.564307825,16,0,14.533,478.3077692,110.564308,0.223694,0.734468527,0,0,-0.671082,359.9,1,-4.3,0,0,1024,1024,1024,1024,0,0,0,0,254.5,-90,0,92,,,,,,,14.196,30.9500114,478.3077692,110.564308,14,Waypoint,
13710,3/16/2022 18:39,36.55903734,-89.07436753,111.54856,111.54856,367.7434612,479.2920212,0,0.223694,0.097765095,2.600761238,16,0,14.533,479.2920212,111.54856,0.223694,0.734468527,0,0,-0.671082,359.9,0.6,-4.4,0,0,1024,1024,1024,1024,0,0,0,0,254.5,-90,0,92,,,,,,,14.196,30.9500114,479.2920212,111.54856,14,Waypoint,
13810,3/16/2022 18:39,36.55903733,-89.0743674,112.532812,112.532812,367.7434612,480.2762732,0,0.223694,0.137265424,2.640328168,16,0,14.533,480.2762732,112.532812,0.223694,0.734468527,0,0,-0.671082,359.9,0.4,-4.2,0,0,1024,1024,1024,1024,0,0,0,0,254.5,-90,0,92,,,,,,,14.196,30.9500114,480.2762732,112.532812,14,Waypoint,
13910,3/16/2022 18:39,36.55903731,-89.07436727,113.517064,113.517064,367.7434612,481.2605252,0,0.223694,0.174974415,2.678123445,16,0,14.533,481.2605252,113.517064,0.223694,0.734468527,0,0,-0.671082,359.9,0.6,-4.2,0,0,1024,1024,1024,1024,0,0,0,0,254.5,-90,0,92,,,,,,,14.196,30.9500114,481.2605252,113.517064,14,Waypoint,
14010,3/16/2022 18:39,36.55903727,-89.07436714,114.501316,114.501316,367.7434612,482.2447772,0,0.223694,0.216999023,2.720895756,16,0,14.533,482.2447772,114.501316,0.223694,0.734468527,0,0,-0.671082,359.9,0.3,-4.2,0,0,1024,1024,1024,1024,0,0,0,0,254.5,-90,0,92,,,,,,,14.196,30.9500114,482.2447772,114.501316,14,Waypoint,
14110,3/16/2022 18:39,36.5590372,-89.07436701,115.485568,115.485568,367.7434612,483.2290292,0,0.223694,0.257527895,2.763818986,16,0,14.48,483.2290292,115.485568,0.223694,0.734468527,0,0,-0.671082,359.9,0.1,-4.1,0,0,1024,1024,1024,1024,0,0,0,0,254.5,-89.9,0,92,,,,,,,14.058,30.9500114,483.2290292,115.485568,14,Waypoint,
14210,3/16/2022 18:39,36.55903715,-89.07436689,116.46982,116.46982,367.7434612,484.2132812,0,0,0.29773623,2.805298646,16,0,14.48,484.2132812,116.46982,0.223694,0.734468527,0,0,-0.671082,359.9,0.8,-3.4,0,0,1024,1024,1024,1024,0,0,0,0,254.5,-90,0,92,,,,,,,14.058,30.9500114,484.2132812,116.46982,14,Waypoint,
14310,3/16/2022 18:39,36.55903709,-89.07436678,117.454072,117.454072,367.7434612,485.1975332,0,0,0.335436362,2.844242217,16,0,14.48,485.1975332,117.454072,0.223694,0.734468527,0,0,-0.671082,359.9,1,-2.8,0,0,1024,1024,1024,1024,0,0,0,0,254.5,-90,0,92,,,,,,,14.058,30.9500114,485.1975332,117.454072,14,Waypoint,
14410,3/16/2022 18:39,36.55903703,-89.07436663,118.438324,118.438324,367.7434612,486.1817852,0,0,0.382204737,2.891545368,16,0,14.48,486.1817852,118.438324,0.223694,0.734468527,0,0,-0.671082,359.9,0.7,-2.9,0,0,1024,1024,1024,1024,0,0,0,0,254.5,-90,0,92,,,,,,,14.058,30.9500114,486.1817852,118.438324,14,Waypoint,
14510,3/16/2022 18:39,36.55903698,-89.0743665,119.422576,119.422576,367.7434612,487.1660372,0,0,0.424301195,2.933914136,16,0,14.48,487.1660372,119.422576,0.223694,0.734468527,0,0,-0.671082,359.9,0.5,-3.3,0,0,1024,1024,1024,1024,0,0,0,0,254.5,-90,0,92,,,,,,,14.058,30.9500114,487.1660372,119.422576,14,Waypoint,
14610,3/16/2022 18:39,36.55903695,-89.07436635,120.406828,120.3740196,367.7762696,488.1502892,0,0,0.469005921,2.978727129,16,0,14.48,488.1502892,120.406828,0.223694,0.734468527,0,0,-0.671082,359.9,0.4,-3.7,0,0,1024,1024,1024,1024,0,0,0,0,254.5,-90,0,92,,,,,,,14.058,30.9500114,488.1502892,120.406828,14,Waypoint,
14710,3/16/2022 18:39,36.55903692,-89.07436622,121.39108,121.3582716,367.7762696,489.1345412,0,0,0.509042011,3.018769782,16,0,14.48,489.1345412,121.39108,0.223694,0.734468527,0,0,-0.671082,359.9,0.5,-3.8,0,0,1024,1024,1024,1024,0,0,0,0,254.5,-90,0,92,,,,,,,14.058,30.9500114,489.1345412,121.39108,14,Waypoint,
14810,3/16/2022 18:39,36.55903689,-89.07436612,122.375332,122.3425236,367.7762696,490.1187932,0,0,0.540242799,3.050000098,16,0,14.48,490.1187932,122.375332,0.223694,0.734468527,0,0,-0.671082,359.9,0.1,-3.4,0,0,1024,1024,1024,1024,0,0,0,0,254.5,-90,0,92,,,,,,,14.058,30.9500114,490.1187932,122.375332,14,Waypoint,
14910,3/16/2022 18:39,36.55903686,-89.07436606,123.359584,123.3267756,367.7762696,491.1030452,0,0,0.560708679,3.070771096,16,0,14.48,491.1030452,123.359584,0.223694,0.734468527,0,0,-0.671082,359.9,0.1,-2.8,0,0,1024,1024,1024,1024,0,0,0,0,254.5,-90,0,92,,,,,,,14.058,30.9500114,491.1030452,123.359584,14,Waypoint,
15010,3/16/2022 18:39,36.55903684,-89.07436602,124.343836,124.3110276,367.7762696,492.0872972,0,0,0.576043326,3.086876739,16,0,14.48,492.0872972,124.343836,0.223694,0.734468527,0,0,-0.671082,359.9,0.9,-2.8,0,0,1024,1024,1024,1024,0,0,0,0,254.5,-90,0,92,,,,,,,14.058,30.9500114,492.0872972,124.343836,14,Waypoint,
15110,3/16/2022 18:39,36.55903682,-89.07436596,125.328088,125.2952796,367.7762696,493.0715492,0,0,0.5935991,3.104445637,16,0,14.399,493.0715492,125.328088,0.223694,0.734468527,0,0,-0.671082,359.9,0.8,-3.1,0,0,1024,1024,1024,1024,0,0,0,0,254.5,-90,0,92,,,,,,,14.724,30.9500114,493.0715492,125.328088,14,Waypoint,
15210,3/16/2022 18:39,36.55903684,-89.07436587,126.31234,126.2795316,367.7762696,494.0558012,0,0,0.617857631,3.133317029,16,0,14.399,494.0558012,126.31234,0.223694,0.734468527,0,0,-0.671082,359.9,0.4,-3.5,0,0,1024,1024,1024,1024,0,0,0,0,254.5,-90,0,92,,,,,,,14.724,30.9500114,494.0558012,126.31234,14,Waypoint,
15310,3/16/2022 18:39,36.55903686,-89.07436576,127.296592,127.2637836,367.7762696,495.0400532,0,0,0.644753958,3.165239603,16,0,14.399,495.0400532,127.296592,0.223694,0.734468527,0,0,-0.671082,359.9,0,-4,0,0,1024,1024,1024,1024,0,0,0,0,254.5,-90,0,92,,,,,,,14.724,30.9500114,495.0400532,127.296592,14,Waypoint,
15410,3/16/2022 18:39,36.55903688,-89.07436563,128.280844,128.2480356,367.7762696,496.0243052,0,0,0.679606321,3.2043669,16,0,14.399,496.0243052,128.280844,0.223694,0.734468527,0,0,-0.671082,359.9,-0.2,-3.6,0,0,1024,1024,1024,1024,0,0,0,0,254.5,-90,0,92,,,,,,,14.724,30.9500114,496.0243052,128.280844,14,Waypoint,
15510,3/16/2022 18:39,36.55903688,-89.07436552,129.265096,129.2322876,367.7762696,497.0085572,0,0,0.711377976,3.237506665,16,0,14.399,497.0085572,129.265096,0.223694,0.734468527,0,0,-0.671082,359.9,-0.3,-3.7,0,0,1024,1024,1024,1024,0,0,0,0,254.5,-90,0,92,,,,,,,14.724,30.9500114,497.0085572,129.265096,14,Waypoint,
15610,3/16/2022 18:39,36.55903685,-89.07436544,130.249348,130.2165396,367.7762696,497.9928092,0,0,0.736223777,3.262943018,16,0,14.399,497.9928092,130.249348,0.223694,0.736223777,0,0,-0.671082,359.9,-0.3,-3.5,0,0,1024,1024,1024,1024,0,0,0,0,254.5,-90,0,92,,,,,,,14.724,30.9500114,497.9928092,130.249348,14,Waypoint,
15710,3/16/2022 18:39,36.55903679,-89.07436538,131.2336,131.2007916,367.7762696,498.9770612,0,0,0.759744119,3.291371496,16,0,14.399,498.9770612,131.2336,0.223694,0.759744119,0,0,-0.671082,359.9,-0.7,-3.3,0,0,1024,1024,1024,1024,0,0,0,0,254.5,-90,0,92,,,,,,,14.724,30.9500114,498.9770612,131.2336,14,Waypoint,
15810,3/16/2022 18:39,36.55903672,-89.07436532,132.217852,132.1850436,367.7762696,499.9613132,0,0,0.782162099,3.320800631,16,0,14.399,499.9613132,132.217852,0.223694,0.782162099,0,0,-0.671082,359.9,-0.5,-2.8,0,0,1024,1024,1024,1024,0,0,0,0,254.5,-90,0,92,,,,,,,14.724,30.9500114,499.9613132,132.217852,14,Waypoint,
15910,3/16/2022 18:39,36.55903665,-89.07436529,133.202104,133.1692956,367.7762696,500.9455652,0,0,0.801017086,3.350000107,16,0,14.399,500.9455652,133.202104,0.223694,0.801017086,0,0,-0.671082,359.9,-0.6,-2.1,0,0,1024,1024,1024,1024,0,0,0,0,254.5,-90,0,92,,,,,,,14.724,30.9500114,500.9455652,133.202104,14,Waypoint,
16010,3/16/2022 18:39,36.55903658,-89.07436526,134.186356,134.1535476,367.7762696,501.9298172,0,0,0.817559081,3.377231079,16,0,14.399,501.9298172,134.186356,0.223694,0.817559081,0,0,-0.671082,359.9,-0.3,-2.3,0,0,1024,1024,1024,1024,0,0,0,0,254.5,-89.9,0,92,,,,,,,14.724,30.9500114,501.9298172,134.186356,14,Waypoint,
16110,3/16/2022 18:39,36.5590365,-89.07436526,135.170608,135.1377996,367.7762696,502.9140692,0,0,0.827109607,3.40324814,16,0,14.426,502.9140692,135.170608,0.223694,0.827109607,0,0,-0.671082,359.9,0.4,-2.4,0,0,1024,1024,1024,1024,0,0,0,0,254.5,-90,0,92,,,,,,,14.954,30.9500114,502.9140692,135.170608,14,Waypoint,
16210,3/16/2022 18:39,36.55903644,-89.07436527,136.15486,136.1220516,367.7762696,503.8983212,0,0,0.831804489,3.425918745,16,0,14.426,503.8983212,136.15486,0.223694,0.831804489,0,0,-0.671082,359.9,0.8,-2.3,0,0,1024,1024,1024,1024,0,0,0,0,254.5,-90,0,92,,,,,,,14.954,30.9500114,503.8983212,136.15486,14,Waypoint,
16310,3/16/2022 18:39,36.55903639,-89.0743653,137.139112,137.1063036,367.7762696,504.8825732,0,0,0.834124042,3.44753948,16,0,14.426,504.8825732,137.139112,0.223694,0.834124042,0,0,-0.671082,359.9,0.6,-2.2,0,0,1024,1024,1024,1024,0,0,0,0,254.5,-89.9,0,92,,,,,,,14.954,30.9500114,504.8825732,137.139112,14,Waypoint,
16410,3/16/2022 18:39,36.55903635,-89.07436534,138.123364,138.0905556,367.7762696,505.8668252,0,0,0.828376011,3.465420058,16,0,14.426,505.8668252,138.123364,0.223694,0.834124042,0,0,-0.671082,359.9,0.6,-2.2,0,0,1024,1024,1024,1024,0,0,0,0,254.5,-89.9,0,92,,,,,,,14.954,30.9500114,505.8668252,138.123364,14,Waypoint,
16510,3/16/2022 18:39,36.55903632,-89.07436539,139.107616,139.0748076,367.7762696,506.8510772,0,0,0.821361575,3.483891188,16,0,14.426,506.8510772,139.107616,0.223694,0.834124042,0,0,-0.671082,359.9,0.7,-2.4,0,0,1024,1024,1024,1024,0,0,0,0,254.5,-90,0,92,,,,,,,14.954,30.9500114,506.8510772,139.107616,14,Waypoint,
16610,3/16/2022 18:39,36.55903628,-89.07436544,140.091868,140.0590596,367.7762696,507.8353292,0,0,0.815121417,3.506857068,16,0,14.426,507.8353292,140.091868,0.223694,0.834124042,0,0,-0.671082,359.9,0.9,-2.5,0,0,1024,1024,1024,1024,0,0,0,0,254.5,-90,0,92,,,,,,,14.954,30.9500114,507.8353292,140.091868,14,Waypoint,
16710,3/16/2022 18:39,36.55903622,-89.07436549,141.07612,141.0433116,367.7762696,508.8195812,0,0,0.814422598,3.53162741,16,0,14.426,508.8195812,141.07612,0.223694,0.834124042,0,0,-0.671082,359.9,0.6,-2.5,0,0,1024,1024,1024,1024,0,0,0,0,254.5,-90,0,92,,,,,,,14.954,30.9500114,508.8195812,141.07612,14,Waypoint,
16810,3/16/2022 18:39,36.55903615,-89.07436552,142.060372,142.060372,367.7434612,509.8038332,0,0,0.82114832,3.55869434,16,0,14.426,509.8038332,142.060372,0.223694,0.834124042,0,0,-0.671082,359.9,0.5,-2,0,0,1024,1024,1024,1024,0,0,0,0,254.5,-90,0,92,,,,,,,14.954,30.9500114,509.8038332,142.060372,14,Waypoint,
16910,3/16/2022 18:39,36.55903608,-89.07436554,143.044624,143.044624,367.7434612,510.7880852,0,0,0.827503307,3.58349749,16,0,14.426,510.7880852,143.044624,0.223694,0.834124042,0,0,-0.671082,359.9,0.5,-1.7,0,0,1024,1024,1024,1024,0,0,0,0,254.5,-89.9,0,92,,,,,,,14.954,30.9500114,510.7880852,143.044624,14,Waypoint,
17010,3/16/2022 18:39,36.55903603,-89.0743656,144.028876,144.028876,367.7434612,511.7723372,0,0,0.825449501,3.607611664,16,0,14.426,511.7723372,144.028876,0.223694,0.834124042,0,0,-0.671082,359.9,0.8,-2,0,0,1024,1024,1024,1024,0,0,0,0,254.5,-90,0,92,,,,,,,14.954,30.9500114,511.7723372,144.028876,14,Waypoint,
17110,3/16/2022 18:39,36.559036,-89.07436566,145.013128,145.013128,367.7434612,512.7565892,0,0,0.819865512,3.629298016,16,0,14.266,512.7565892,145.013128,0.223694,0.834124042,0,0,-0.671082,359.9,1.4,-2.2,0,0,1024,1024,1024,1024,0,0,0,0,254.5,-90,0,92,,,,,,,14.954,30.9500114,512.7565892,145.013128,14,Waypoint,
17210,3/16/2022 18:39,36.55903597,-89.07436569,145.99738,145.99738,367.7434612,513.7408412,0,0,0.818244777,3.64501324,16,0,14.266,513.7408412,145.99738,0.223694,0.834124042,0,0,-0.671082,359.9,0.8,-2,0,0,1024,1024,1024,1024,0,0,0,0,254.5,-90,0,92,,,,,,,14.954,30.9500114,513.7408412,145.99738,14,Waypoint,
17310,3/16/2022 18:39,36.55903595,-89.07436572,146.981632,146.981632,367.7434612,514.7250932,0,0,0.814717874,3.655183844,16,0,14.266,514.7250932,146.981632,0.223694,0.834124042,0,0,-0.671082,359.9,0.6,-2.2,0,0,1024,1024,1024,1024,0,0,0,0,254.5,-90,0,92,,,,,,,14.954,30.9500114,514.7250932,146.981632,14,Waypoint,
17410,3/16/2022 18:39,36.55903594,-89.07436576,147.965884,147.965884,367.7434612,515.7093452,0,0,0.808979685,3.666732401,16,0,14.266,515.7093452,147.965884,0.223694,0.834124042,0,0,-0.671082,359.9,0.4,-2.3,0,0,1024,1024,1024,1024,0,0,0,0,254.5,-90,0,92,,,,,,,14.954,30.9500114,515.7093452,147.965884,14,Waypoint,
17510,3/16/2022 18:39,36.55903594,-89.07436581,148.950136,148.950136,367.7434612,516.6935972,0,0,0.800167348,3.680019803,16,0,14.266,516.6935972,148.950136,0.223694,0.834124042,0,0,-0.671082,359.9,0.4,-2.2,0,0,1024,1024,1024,1024,0,0,0,0,254.5,-89.9,0,92,,,,,,,14.954,30.9500114,516.6935972,148.950136,14,Waypoint,
17610,3/16/2022 18:39,36.55903595,-89.07436588,149.934388,149.934388,367.7434612,517.6778492,0,0,0.779507899,3.703084108,16,0,14.266,517.6778492,149.934388,0.223694,0.834124042,0,0,-0.671082,359.9,0.7,-2.4,0,0,1024,1024,1024,1024,0,0,0,0,254.5,-90,0,92,,,,,,,14.954,30.9500114,517.6778492,149.934388,14,Waypoint,
17710,3/16/2022 18:39,36.55903599,-89.07436597,150.91864,150.91864,367.7434612,518.6621012,0,0,0.751105667,3.732644476,16,0,14.266,518.6621012,150.91864,0.223694,0.834124042,0,0,-0.671082,359.9,1.2,-2.9,0,0,1024,1024,1024,1024,0,0,0,0,254.5,-90,0,92,,,,,,,14.954,30.9500114,518.6621012,150.91864,14,Waypoint,
17810,3/16/2022 18:39,36.55903603,-89.07436609,151.902892,151.902892,367.7434612,519.6463532,0,0,0.715833356,3.770013244,16,0,14.266,519.6463532,151.902892,0.223694,0.834124042,0,0,-0.671082,359.9,1.3,-3.3,0,0,1024,1024,1024,1024,0,0,0,0,254.5,-90,0,92,,,,,,,14.954,30.9500114,519.6463532,151.902892,14,Waypoint,
17910,3/16/2022 18:39,36.55903608,-89.07436618,152.887144,152.887144,367.7434612,520.6306052,0,0,0.684156846,3.802362326,16,0,14.266,520.6306052,152.887144,0.223694,0.834124042,0,0,-0.671082,359.9,1.3,-3.8,0,0,1024,1024,1024,1024,0,0,0,0,254.5,-90,0,92,,,,,,,14.954,30.9500114,520.6306052,152.887144,14,Waypoint,
18010,3/16/2022 18:39,36.55903612,-89.07436626,153.871396,153.871396,367.7434612,521.6148572,0,0,0.655498709,3.831135293,16,0,14.266,521.6148572,153.871396,0.223694,0.834124042,0,0,-0.671082,359.9,0.9,-3.7,0,0,1024,1024,1024,1024,0,0,0,0,254.5,-90,0,92,,,,,,,14.954,30.9500114,521.6148572,153.871396,14,Waypoint,
18110,3/16/2022 18:39,36.55903617,-89.07436631,154.855648,154.855648,367.7434612,522.5991092,0,0,0.633172592,3.853510622,16,0,14.426,522.5991092,154.855648,0.223694,0.834124042,0,0,-0.671082,359.9,0.6,-3.5,0,0,1024,1024,1024,1024,0,0,0,0,254.5,-90,0,92,,,,,,,15.126,30.9500114,522.5991092,154.855648,14,Waypoint,
18210,3/16/2022 18:39,36.55903622,-89.07436636,155.8399,155.8399,367.7434612,523.5833612,0,0,0.61207023,3.874737657,16,0,14.426,523.5833612,155.8399,0.223694,0.834124042,0,0,-0.671082,359.9,0.5,-3.1,0,0,1024,1024,1024,1024,0,0,0,0,254.5,-90,0,92,,,,,,,15.126,30.9500114,523.5833612,155.8399,14,Waypoint,
18310,3/16/2022 18:39,36.55903626,-89.07436639,156.824152,156.824152,367.7434612,524.5676132,0,0,0.594593195,3.893011936,16,0,14.426,524.5676132,156.824152,0.223694,0.834124042,0,0,-0.671082,359.9,0.6,-3.3,0,0,1024,1024,1024,1024,0,0,0,0,254.5,-90,0,92,,,,,,,15.126,30.9500114,524.5676132,156.824152,14,Waypoint,
18410,3/16/2022 18:39,36.55903631,-89.07436643,157.808404,157.808404,367.7434612,525.5518652,0,0,0.572772328,3.915945007,16,0,14.426,525.5518652,157.808404,0.223694,0.834124042,0,0,-0.671082,359.9,0.5,-3.5,0,0,1024,1024,1024,1024,0,0,0,0,254.5,-90,0,92,,,,,,,15.126,30.9500114,525.5518652,157.808404,14,Waypoint,
18510,3/16/2022 18:39,36.55903636,-89.07436646,158.792656,158.792656,367.7434612,526.5361172,0,0,0.554248705,3.935433197,16,0,14.426,526.5361172,158.792656,0.223694,0.834124042,0,0,-0.671082,359.9,0.6,-3.5,0,0,1024,1024,1024,1024,0,0,0,0,254.5,-90,0,92,,,,,,,15.126,30.9500114,526.5361172,158.792656,14,Waypoint,
18610,3/16/2022 18:39,36.55903638,-89.0743665,159.776908,159.776908,367.7434612,527.5203692,0,0,0.540301855,3.949770468,16,0,14.426,527.5203692,159.776908,0.223694,0.834124042,0,0,-0.671082,359.9,0.4,-3.5,0,0,1024,1024,1024,1024,0,0,0,0,254.5,-90,0,92,,,,,,,15.126,30.9500114,527.5203692,159.776908,14,Waypoint,
18710,3/16/2022 18:39,36.55903639,-89.07436654,160.76116,160.76116,367.7434612,528.5046212,0,0,0.530977707,3.960203539,16,0,14.426,528.5046212,160.76116,0.223694,0.834124042,0,0,-0.671082,359.9,0.3,-3.6,0,0,1024,1024,1024,1024,0,0,0,0,254.5,-90,0,92,,,,,,,15.126,30.9500114,528.5046212,160.76116,14,Waypoint,
18810,3/16/2022 18:39,36.55903642,-89.07436656,161.745412,161.745412,367.7434612,529.4888732,0,0,0.518750017,3.973064432,16,0,14.426,529.4888732,161.745412,0.223694,0.834124042,0,0,-0.671082,359.9,0.6,-3.5,0,0,1024,1024,1024,1024,0,0,0,0,254.5,-90,0,92,,,,,,,15.126,30.9500114,529.4888732,161.745412,14,Waypoint,
18910,3/16/2022 18:39,36.55903645,-89.07436656,162.729664,162.729664,367.7434612,530.4731252,0,0,0.51067915,3.985334773,16,0,14.426,530.4731252,162.729664,0.223694,0.834124042,0,0,-0.671082,359.9,0.5,-3.2,0,0,1024,1024,1024,1024,0,0,0,0,254.5,-90,0,92,,,,,,,15.126,30.9500114,530.4731252,162.729664,14,Waypoint,
19010,3/16/2022 18:39,36.55903647,-89.07436657,164.042,164.042,367.7434612,531.7854612,0,0,0.503438336,3.993471256,16,0,14.426,531.7854612,164.042,0.223694,0.834124042,0,0,-0.671082,359.9,0.5,-3,0,0,1024,1024,1024,1024,0,0,0,0,254.5,-90,0,92,,,,,,,15.126,30.9500114,531.7854612,164.042,14,Waypoint,
19110,3/16/2022 18:39,36.55903648,-89.07436658,164.698168,164.698168,367.7434612,532.4416292,0,0,0.498786105,3.998261283,16,0,14.266,532.4416292,164.698168,0.223694,0.834124042,0,0,-0.671082,359.9,0.3,-2.9,0,0,1024,1024,1024,1024,0,0,0,0,254.5,-90,0,92,,,,,,,15.764,30.9500114,532.4416292,164.698168,14,Waypoint,
19210,3/16/2022 18:39,36.55903649,-89.07436662,165.68242,165.68242,367.7434612,533.4258812,0,0,0.487910121,4.010466008,16,0,14.266,533.4258812,165.68242,0.223694,0.834124042,0,0,-0.671082,359.9,0.4,-3.2,0,0,1024,1024,1024,1024,0,0,0,0,254.5,-90,0,92,,,,,,,15.764,30.9500114,533.4258812,165.68242,14,Waypoint,
19310,3/16/2022 18:39,36.5590365,-89.07436665,166.666672,166.666672,367.7434612,534.4101332,0,0,0.479737548,4.019685168,16,0,14.266,534.4101332,166.666672,0.223694,0.834124042,0,0,-0.671082,359.9,0.3,-3.4,0,0,1024,1024,1024,1024,0,0,0,0,254.5,-90,0,92,,,,,,,15.764,30.9500114,534.4101332,166.666672,14,Waypoint,
19410,3/16/2022 18:39,36.55903651,-89.07436668,167.650924,167.650924,367.7434612,535.3943852,0,0,0.469251984,4.030216664,16,0,14.266,535.3943852,167.650924,0.223694,0.834124042,0,0,-0.671082,359.9,0.5,-3.2,0,0,1024,1024,1024,1024,0,0,0,0,254.5,-90,0,92,,,,,,,15.764,30.9500114,535.3943852,167.650924,14,Waypoint,
19510,3/16/2022 18:39,36.55903653,-89.07436669,168.635176,168.635176,367.7434612,536.3786372,0,0,0.462421275,4.037434512,16,0,14.266,536.3786372,168.635176,0.223694,0.834124042,0,0,-0.671082,359.9,0.5,-3.2,0,0,1024,1024,1024,1024,0,0,0,0,254.5,-90,0,92,,,,,,,15.764,30.9500114,536.3786372,168.635176,14,Waypoint,
19610,3/16/2022 18:39,36.55903654,-89.07436669,169.619428,169.619428,367.7434612,537.3628892,0,0,0.459484923,4.041535562,16,0,14.266,537.3628892,169.619428,0.223694,0.834124042,0,0,-0.671082,359.9,0.4,-3.4,0,0,1024,1024,1024,1024,0,0,0,0,254.5,-90,0,92,,,,,,,15.764,30.9500114,537.3628892,169.619428,14,Waypoint,
19710,3/16/2022 18:39,36.55903653,-89.07436667,170.60368,170.60368,367.7434612,538.3471412,0,0,0.465675868,4.04773635,16,0,14.266,538.3471412,170.60368,0.223694,0.834124042,0,0,-0.671082,359.9,0.1,-3.4,0,0,1024,1024,1024,1024,0,0,0,0,254.5,-90,0,92,,,,,,,15.764,30.9500114,538.3471412,170.60368,14,Waypoint,
19810,3/16/2022 18:39,36.5590365,-89.07436666,171.587932,171.587932,367.7434612,539.3313932,0,0,0.475692272,4.059941075,16,0,14.266,539.3313932,171.587932,0.223694,0.834124042,0,0,-0.671082,359.9,0.3,-3,0,0,1024,1024,1024,1024,0,0,0,0,254.5,-89.9,0,92,,,,,,,15.764,30.9500114,539.3313932,171.587932,14,Waypoint,
19910,3/16/2022 18:39,36.5590364,-89.07436665,173.556436,173.556436,367.7434612,541.2998972,0,0,0.50302495,4.094783596,16,0,14.266,541.2998972,173.556436,0.223694,0.834124042,0,0,-0.671082,359.9,0.6,-2.3,0,0,1024,1024,1024,1024,0,0,0,0,254.5,-90,0,92,,,,,,,15.764,30.9500114,541.2998972,173.556436,14,Waypoint,
20010,3/16/2022 18:39,36.5590364,-89.07436665,173.556436,173.556436,367.7434612,541.2998972,0,0,0.50302495,4.094783596,16,0,14.266,541.2998972,173.556436,0.223694,0.834124042,0,0,-0.671082,359.9,0.6,-2.3,0,0,1024,1024,1024,1024,0,0,0,0,254.5,-90,0,92,,,,,,,15.764,30.9500114,541.2998972,173.556436,14,Waypoint,
20110,3/16/2022 18:39,36.55903633,-89.07436663,175.52494,175.52494,367.7434612,543.2684012,0,0,0.525728363,4.121916142,16,0,14.266,543.2684012,175.52494,0.223694,0.834124042,0,0,-0.671082,359.9,0.2,-2.4,0,0,1024,1024,1024,1024,0,0,0,0,254.5,-90,0,92,,,,,,,15.764,30.9500114,543.2684012,175.52494,14,Waypoint,
20210,3/16/2022 18:39,36.55903629,-89.07436663,176.509192,176.509192,367.7434612,544.2526532,0,0,0.536637156,4.136647114,16,0,14.266,544.2526532,176.509192,0.223694,0.834124042,0,0,-0.671082,359.9,0.5,-2.2,0,0,1024,1024,1024,1024,0,0,0,0,254.5,-89.9,0,92,,,,,,,15.764,30.9500114,544.2526532,176.509192,14,Waypoint,
20310,3/16/2022 18:39,36.55903625,-89.07436664,177.493444,177.493444,367.7434612,545.2369052,0,0,0.546738863,4.153248164,16,0,14.266,545.2369052,177.493444,0.223694,0.834124042,0,0,-0.671082,359.9,0.5,-2,0,0,1024,1024,1024,1024,0,0,0,0,254.5,-90,0,92,,,,,,,15.764,30.9500114,545.2369052,177.493444,14,Waypoint,
20410,3/16/2022 18:39,36.55903619,-89.07436665,178.477696,178.477696,367.7434612,546.2211572,0,0,0.561040044,4.174704858,16,0,14.266,546.2211572,178.477696,0.223694,0.834124042,0,0,-0.671082,359.9,0.7,-1.6,0,0,1024,1024,1024,1024,0,0,0,0,254.5,-89.9,0,92,,,,,,,15.764,30.9500114,546.2211572,178.477696,14,Waypoint,
20510,3/16/2022 18:39,36.55903614,-89.07436667,179.461948,179.461948,367.7434612,547.2054092,0,0,0.570209992,4.191502759,16,0,14.266,547.2054092,179.461948,0.223694,0.834124042,0,0,-0.671082,359.9,1,-1.4,0,0,1024,1024,1024,1024,0,0,0,0,254.5,-89.9,0,92,,,,,,,15.764,30.9500114,547.2054092,179.461948,14,Waypoint,
20610,3/16/2022 18:39,36.55903611,-89.07436667,180.4462,180.4462,367.7434612,548.1896612,0,0,0.578651593,4.202723232,16,0,14.266,548.1896612,180.4462,0.223694,0.834124042,0,0,-0.671082,359.9,0.7,-1.7,0,0,1024,1024,1024,1024,0,0,0,0,254.5,-90,0,92,,,,,,,15.764,30.9500114,548.1896612,180.4462,14,Waypoint,
20710,3/16/2022 18:39,36.55903611,-89.07436667,181.430452,181.430452,367.7434612,549.1739132,0,0,0.579215898,4.205741604,16,0,14.266,549.1739132,181.430452,0.223694,0.834124042,0,0,-0.671082,359.9,0.5,-1.8,0,0,1024,1024,1024,1024,0,0,0,0,254.5,-90,0,92,,,,,,,15.764,30.9500114,549.1739132,181.430452,14,Waypoint,
20810,3/16/2022 18:39,36.55903611,-89.07436669,182.414704,182.414704,367.7434612,550.1581652,0,0,0.577693588,4.209383337,16,0,14.266,550.1581652,182.414704,0.223694,0.834124042,0,0,-0.671082,359.9,0.5,-1.9,0,0,1024,1024,1024,1024,0,0,0,0,254.5,-90,0,92,,,,,,,15.764,30.9500114,550.1581652,182.414704,14,Waypoint,
20910,3/16/2022 18:39,36.55903611,-89.07436671,183.398956,183.398956,367.7434612,551.1424172,0,0,0.57148952,4.217224544,16,0,14.266,551.1424172,183.398956,0.223694,0.834124042,0,0,-0.671082,359.9,0.5,-2.6,0,0,1024,1024,1024,1024,0,0,0,0,254.5,-90,0,92,,,,,,,15.764,30.9500114,551.1424172,183.398956,14,Waypoint,
21010,3/16/2022 18:39,36.55903611,-89.07436673,184.383208,184.383208,367.7434612,552.1266692,0,0,0.568123378,4.223556566,16,0,14.266,552.1266692,184.383208,0.223694,0.834124042,0,0,-0.671082,359.9,0.6,-2.8,0,0,1024,1024,1024,1024,0,0,0,0,254.5,-90,0,92,,,,,,,15.764,30.9500114,552.1266692,184.383208,14,Waypoint,
21110,3/16/2022 18:39,36.55903611,-89.07436673,184.383208,184.383208,367.7434612,552.1266692,0,0,0.568123378,4.223556566,16,0,14.212,552.1266692,184.383208,0.223694,0.834124042,0,0,-0.671082,359.9,0.6,-2.8,0,0,1024,1024,1024,1024,0,0,0,0,254.6,-90,0,92,,,,,,,16.214,30.9500114,552.1266692,184.383208,14,Waypoint,
21210,3/16/2022 18:39,36.55903611,-89.07436678,185.36746,185.36746,367.7434612,553.1109212,0,0,0.561279546,4.236154991,16,0,14.212,553.1109212,185.36746,0.223694,0.834124042,0,0,-0.671082,359.9,0.7,-2.7,0,0,1024,1024,1024,1024,0,0,0,0,254.5,-89.9,0,92,,,,,,,16.214,30.9500114,553.1109212,185.36746,14,Waypoint,
21310,3/16/2022 18:39,36.55903611,-89.07436681,186.351712,186.351712,367.7434612,554.0951732,0,0,0.556604349,4.246719296,16,0,14.212,554.0951732,186.351712,0.223694,0.834124042,0,0,-0.671082,359.9,0.9,-2.7,0,0,1024,1024,1024,1024,0,0,0,0,254.5,-90,0,92,,,,,,,16.214,30.9500114,554.0951732,186.351712,14,Waypoint,
21410,3/16/2022 18:39,36.5590361,-89.07436682,187.335964,187.335964,367.7434612,555.0794252,0,0,0.557178496,4.250984388,16,0,14.212,555.0794252,187.335964,0.223694,0.834124042,0,0,-0.671082,359.9,1,-2.5,0,0,1024,1024,1024,1024,0,0,0,0,254.5,-90,0,92,,,,,,,16.214,30.9500114,555.0794252,187.335964,14,Waypoint,
21510,3/16/2022 18:39,36.55903608,-89.0743668,188.6483,188.6483,367.7434612,556.3917612,0,0,0.565265766,4.259317722,16,0,14.212,556.3917612,188.6483,0.223694,0.834124042,0,0,-0.671082,359.9,0.7,-2,0,0,1024,1024,1024,1024,0,0,0,0,254.5,-90,0,92,,,,,,,16.214,30.9500114,556.3917612,188.6483,14,Waypoint,
21610,3/16/2022 18:39,36.55903608,-89.07436675,189.632552,189.632552,367.7434612,557.3760132,0,0,0.57562994,4.276345281,16,0,14.212,557.3760132,189.632552,0.223694,0.834124042,0,0,-0.671082,359.9,0.4,-1.9,0,0,1024,1024,1024,1024,0,0,0,0,254.5,-90,0,92,,,,,,,16.214,30.9500114,557.3760132,189.632552,14,Waypoint,
21710,3/16/2022 18:39,36.55903608,-89.07436668,190.28872,190.28872,367.7434612,558.0321812,0,0,0.58617784,4.295669429,16,0,14.212,558.0321812,190.28872,0.223694,0.834124042,0,0,-0.671082,359.9,0.2,-2,0,0,1024,1024,1024,1024,0,0,0,0,254.5,-90,0,92,,,,,,,16.214,30.9500114,558.0321812,190.28872,14,Waypoint,
21810,3/16/2022 18:39,36.5590361,-89.07436663,191.272972,191.272972,367.7434612,559.0164332,0,0,0.58926183,4.311942395,16,0,14.212,559.0164332,191.272972,0.223694,0.834124042,0,0,-0.671082,359.9,0,-2.3,0,0,1024,1024,1024,1024,0,0,0,0,254.5,-90,0,92,,,,,,,16.214,30.9500114,559.0164332,191.272972,14,Waypoint,
21910,3/16/2022 18:39,36.55903612,-89.07436661,192.257224,192.257224,367.7434612,560.0006852,0,0,0.588077447,4.321358406,16,0,14.212,560.0006852,192.257224,0.223694,0.834124042,0,0,-0.671082,359.9,0,-2.5,0,0,1024,1024,1024,1024,0,0,0,0,254.6,-90,0,92,,,,,,,16.214,30.9500114,560.0006852,192.257224,14,Waypoint,
22010,3/16/2022 18:39,36.55903611,-89.07436659,193.241476,193.241476,367.7434612,560.9849372,0,0,0.594990177,4.328477829,16,0,14.212,560.9849372,193.241476,0.223694,0.834124042,0,0,-0.671082,359.9,-0.1,-1.9,0,0,1024,1024,1024,1024,0,0,0,0,254.5,-90,0,92,,,,,,,16.214,30.9500114,560.9849372,193.241476,14,Waypoint,
22110,3/16/2022 18:39,36.55903609,-89.07436659,194.225728,194.225728,367.7434612,561.9691892,0,0,0.598789389,4.333431897,16,0,14.266,561.9691892,194.225728,0.223694,0.834124042,0,0,-0.671082,359.9,-0.2,-2.1,0,0,1024,1024,1024,1024,0,0,0,0,254.5,-90,0,92,,,,,,,16.394,31.95001202,561.9691892,194.225728,14,Waypoint,
22210,3/16/2022 18:39,36.55903612,-89.07436661,195.538064,195.538064,367.7434612,563.2815252,0,0,0.587965898,4.344357094,16,0,14.266,563.2815252,195.538064,0.223694,0.834124042,0,0,-0.671082,359.9,0,-3.2,0,0,1024,1024,1024,1024,0,0,0,0,254.5,-89.9,0,92,,,,,,,16.394,31.95001202,563.2815252,195.538064,14,Waypoint,
22310,3/16/2022 18:39,36.55903613,-89.07436667,196.522316,196.522316,367.7434612,564.2657772,0,0,0.574114192,4.361450271,16,0,14.266,564.2657772,196.522316,0.223694,0.834124042,0,0,-0.671082,359.9,0.9,-3.7,0,0,1024,1024,1024,1024,0,0,0,0,254.5,-89.9,0,92,,,,,,,16.394,31.95001202,564.2657772,196.522316,14,Waypoint,
22410,3/16/2022 18:39,36.5590361,-89.07436672,197.506568,197.506568,367.7434612,565.2500292,0,0,0.573763142,4.377854471,16,0,14.266,565.2500292,197.506568,0.223694,0.834124042,0,0,-0.671082,359.9,1.7,-2.8,0,0,1024,1024,1024,1024,0,0,0,0,254.5,-89.9,0,92,,,,,,,16.394,31.95001202,565.2500292,197.506568,14,Waypoint,
22510,3/16/2022 18:39,36.55903604,-89.07436674,198.49082,198.49082,367.7434612,566.2342812,0,0,0.586459993,4.400656309,16,0,14.266,566.2342812,198.49082,0.223694,0.834124042,0,0,-0.671082,359.9,1.8,-1.8,0,0,1024,1024,1024,1024,0,0,0,0,254.5,-89.9,0,92,,,,,,,16.394,31.95001202,566.2342812,198.49082,14,Waypoint,
22610,3/16/2022 18:39,36.55903597,-89.07436675,199.146988,199.146988,367.7434612,566.8904492,0,0,0.607378628,4.426279669,16,0,14.266,566.8904492,199.146988,0.223694,0.834124042,0,0,-0.671082,359.9,1.5,-1.2,0,0,1024,1024,1024,1024,0,0,0,0,254.5,-89.9,0,92,,,,,,,16.394,31.95001202,566.8904492,199.146988,14,Waypoint,
22710,3/16/2022 18:39,36.55903592,-89.07436675,200.13124,200.13124,367.7434612,567.8747012,0,0,0.623881254,4.445899092,16,0,14.266,567.8747012,200.13124,0.223694,0.834124042,0,0,-0.671082,359.9,1.1,-1.4,0,0,1024,1024,1024,1024,0,0,0,0,254.5,-89.9,0,92,,,,,,,16.394,31.95001202,567.8747012,200.13124,14,Waypoint,
22810,3/16/2022 18:39,36.55903591,-89.07436674,201.115492,201.115492,367.7434612,568.8589532,0,0,0.628261175,4.450393843,16,0,14.266,568.8589532,201.115492,0.223694,0.834124042,0,0,-0.671082,359.9,1.2,-1.7,0,0,1024,1024,1024,1024,0,0,0,0,254.5,-90,0,92,,,,,,,16.394,31.95001202,568.8589532,201.115492,14,Waypoint,
22910,3/16/2022 18:39,36.55903592,-89.07436673,202.099744,202.099744,367.7434612,569.8432052,0,0,0.624586634,4.455643187,16,0,14.266,569.8432052,202.099744,0.223694,0.834124042,0,0,-0.671082,359.9,1.6,-1.8,0,0,1024,1024,1024,1024,0,0,0,0,254.5,-90,0,92,,,,,,,16.394,31.95001202,569.8432052,202.099744,14,Waypoint,
23010,3/16/2022 18:39,36.55903594,-89.07436673,203.083996,203.083996,367.7434612,570.8274572,0,0,0.619517736,4.461614316,16,0,14.266,570.8274572,203.083996,0.223694,0.834124042,0,0,-0.671082,359.9,1.1,-2.2,0,0,1024,1024,1024,1024,0,0,0,0,254.5,-89.9,0,92,,,,,,,16.394,31.95001202,570.8274572,203.083996,14,Waypoint,
23110,3/16/2022 18:39,36.55903595,-89.07436674,204.068248,204.068248,367.7434612,571.8117092,0,0,0.615072198,4.466141875,16,0,14.293,571.8117092,204.068248,0.223694,0.834124042,0,0,-0.671082,359.9,0.9,-2.5,0,0,1024,1024,1024,1024,0,0,0,0,254.5,-90,0,92,,,,,,,16.42,31.95001202,571.8117092,204.068248,14,Waypoint,
23210,3/16/2022 18:39,36.55903596,-89.07436674,205.0525,205.0525,367.7434612,572.7959612,0,0,0.614360256,4.467519828,16,0,14.293,572.7959612,205.0525,0.223694,0.834124042,0,0,-0.671082,359.9,1,-2.2,0,0,1024,1024,1024,1024,0,0,0,0,254.5,-90,0,92,,,,,,,16.42,31.95001202,572.7959612,205.0525,14,Waypoint,
23310,3/16/2022 18:39,36.55903596,-89.07436672,206.036752,206.036752,367.7434612,573.7802132,0,0,0.61480645,4.471522453,16,0,14.293,573.7802132,206.036752,0.223694,0.834124042,0,0,-0.671082,359.9,0.9,-2.1,0,0,1024,1024,1024,1024,0,0,0,0,254.5,-90,0,92,,,,,,,16.42,31.95001202,573.7802132,206.036752,14,Waypoint,
23410,3/16/2022 18:39,36.559036,-89.07436671,207.021004,207.021004,367.7434612,574.7644652,0,0,0.606184403,4.484317729,16,0,14.293,574.7644652,207.021004,0.223694,0.834124042,0,0,-0.671082,359.9,0.8,-2.1,0,0,1024,1024,1024,1024,0,0,0,0,254.5,-90,0,92,,,,,,,16.42,31.95001202,574.7644652,207.021004,14,Waypoint,
23510,3/16/2022 18:39,36.55903604,-89.07436671,208.005256,208.005256,367.7434612,575.7487172,0,0,0.594917998,4.499278359,16,0,14.293,575.7487172,208.005256,0.223694,0.834124042,0,0,-0.671082,359.9,0.8,-2.4,0,0,1024,1024,1024,1024,0,0,0,0,254.5,-90,0,92,,,,,,,16.42,31.95001202,575.7487172,208.005256,14,Waypoint,
23610,3/16/2022 18:39,36.55903608,-89.07436673,208.989508,208.989508,367.7434612,576.7329692,0,0,0.578956711,4.515616942,16,0,14.293,576.7329692,208.989508,0.223694,0.834124042,0,0,-0.671082,359.9,0.8,-2.6,0,0,1024,1024,1024,1024,0,0,0,0,254.5,-90,0,92,,,,,,,16.42,31.95001202,576.7329692,208.989508,14,Waypoint,
23710,3/16/2022 18:39,36.55903611,-89.07436675,209.97376,209.97376,367.7434612,577.7172212,0,0,0.56754595,4.527132691,16,0,14.293,577.7172212,209.97376,0.223694,0.834124042,0,0,-0.671082,359.9,0.7,-2.4,0,0,1024,1024,1024,1024,0,0,0,0,254.5,-90,0,92,,,,,,,16.42,31.95001202,577.7172212,209.97376,14,Waypoint,
23810,3/16/2022 18:39,36.55903615,-89.07436677,211.286096,211.286096,367.7434612,579.0295572,0,0,0.550675871,4.544652376,16,0,14.293,579.0295572,211.286096,0.223694,0.834124042,0,0,-0.671082,359.9,0.5,-2.2,0,0,1024,1024,1024,1024,0,0,0,0,254.5,-90,0,92,,,,,,,16.42,31.95001202,579.0295572,211.286096,14,Waypoint,
23910,3/16/2022 18:39,36.5590362,-89.07436679,212.270348,212.270348,367.7434612,580.0138092,0,0,0.531282825,4.564862351,16,0,14.293,580.0138092,212.270348,0.223694,0.834124042,0,0,-0.671082,359.9,0.6,-2.7,0,0,1024,1024,1024,1024,0,0,0,0,254.5,-90,0,92,,,,,,,16.42,31.95001202,580.0138092,212.270348,14,Waypoint,
24010,3/16/2022 18:39,36.55903625,-89.07436683,213.2546,213.2546,367.7434612,580.9980612,0,0,0.512168652,4.58395684,16,0,14.293,580.9980612,213.2546,0.223694,0.834124042,0,0,-0.671082,359.9,0.7,-3.1,0,0,1024,1024,1024,1024,0,0,0,0,254.5,-90,0,92,,,,,,,16.42,31.95001202,580.9980612,213.2546,14,Waypoint,
24110,3/16/2022 18:39,36.55903627,-89.07436687,214.238852,214.238852,367.7434612,581.9823132,0,0,0.498435055,4.598261302,16,0,14.239,581.9823132,214.238852,0.223694,0.834124042,0,0,-0.671082,359.9,0.8,-3.2,0,0,1024,1024,1024,1024,0,0,0,0,254.5,-90,0,92,,,,,,,16.42,31.95001202,581.9823132,214.238852,14,Waypoint,
24210,3/16/2022 18:39,36.55903631,-89.0743669,215.223104,215.223104,367.7434612,582.9665652,0,0,0.479334005,4.617487024,16,0,14.239,582.9665652,215.223104,0.223694,0.834124042,0,0,-0.671082,359.9,0.9,-3.1,0,0,1024,1024,1024,1024,0,0,0,0,254.5,-90,0,92,,,,,,,16.42,31.95001202,582.9665652,215.223104,14,Waypoint,
24310,3/16/2022 18:39,36.55903636,-89.07436692,216.207356,216.207356,367.7434612,583.9508172,0,0,0.461397653,4.636056579,16,0,14.239,583.9508172,216.207356,0.223694,0.834124042,0,0,-0.671082,359.9,1.1,-2.9,0,0,1024,1024,1024,1024,0,0,0,0,254.5,-90,0,92,,,,,,,16.42,31.95001202,583.9508172,216.207356,14,Waypoint,
24410,3/16/2022 18:39,36.55903639,-89.07436695,217.191608,217.191608,367.7434612,584.9350692,0,0,0.447355657,4.650098574,16,0,14.239,584.9350692,217.191608,0.223694,0.834124042,0,0,-0.671082,359.9,1.1,-2.7,0,0,1024,1024,1024,1024,0,0,0,0,254.5,-90,0,92,,,,,,,16.42,31.95001202,584.9350692,217.191608,14,Waypoint,
